name,name_en,lat,lon,kg_n_per_year,country_code,country,province,attendance,__type
Supa Dupa Fly Santorini 2026,Supa Dupa Fly Santorini 2026,36.393156,25.461509,0.7,GR,Greece,South Aegean,500,festivals
Release Athens Festival 2026,Release Athens Festival 2026,37.936518,23.688613,315.0,GR,Greece,Attica,225000,festivals
EJEKT Festival 2026,EJEKT Festival 2026,37.936518,23.688613,77.0,GR,Greece,Attica,55000,festivals
Free Earth Festival 2026,Free Earth Festival 2026,40.023815,23.834027,7.0,GR,Greece,Central Macedonia,5000,festivals
Xanthi Carnival,Xanthi Carnival,41.139189,24.887929,22.4,GR,Greece,Eastern Macedonia and Thrace,16000,festivals
Xanthi Old Town Festival,Xanthi Old Town Festival,41.144077,24.887603,70.0,GR,Greece,Eastern Macedonia and Thrace,50000,festivals
International Portoheli Festival,International Portoheli Festival,37.322081,23.142876,70.0,GR,Greece,Peloponnese,50000,festivals
